{
"type": "FeatureCollection",
"crs": { "type": "name", "properties": { "name": "urn:ogc:def:crs:OGC:1.3:CRS84" } },
"features": [
{ "type": "Feature", "properties": { "id": 0, "townname": "Port Hope" }, "geometry": { "type": "Point", "coordinates": [ -78.317727761535636, 43.859817488597145 ] } },
{ "type": "Feature", "properties": { "id": 1, "townname": "Orangeville" }, "geometry": { "type": "Point", "coordinates": [ -80.109717975535204, 43.915353133006334 ] } },
{ "type": "Feature", "properties": { "id": 2, "townname": "Uxbridge" }, "geometry": { "type": "Point", "coordinates": [ -79.188131686091069, 44.11696208392199 ] } },
{ "type": "Feature", "properties": { "id": 3, "townname": "Milton" }, "geometry": { "type": "Point", "coordinates": [ -79.943679875879866, 43.519170775317519 ] } },
{ "type": "Feature", "properties": { "id": 4, "townname": "Halton Hills" }, "geometry": { "type": "Point", "coordinates": [ -79.941641076824951, 43.623829412821976 ] } },
{ "type": "Feature", "properties": { "id": 5, "townname": "Vaughan" }, "geometry": { "type": "Point", "coordinates": [ -79.564668838836312, 43.836546460893587 ] } },
{ "type": "Feature", "properties": { "id": 6, "townname": "Cobourg" }, "geometry": { "type": "Point", "coordinates": [ -78.099675158726157, 43.808637816009778 ] } },
{ "type": "Feature", "properties": { "id": 7, "townname": "Pelham" }, "geometry": { "type": "Point", "coordinates": [ -79.334578347050439, 43.040592775884406 ] } },
{ "type": "Feature", "properties": { "id": 8, "townname": "Whitby" }, "geometry": { "type": "Point", "coordinates": [ -78.90987383208433, 43.80257524865371 ] } },
{ "type": "Feature", "properties": { "id": 9, "townname": "Hamilton" }, "geometry": { "type": "Point", "coordinates": [ -79.939389954267369, 43.253943507268723 ] } },
{ "type": "Feature", "properties": { "id": 10, "townname": "Mono" }, "geometry": { "type": "Point", "coordinates": [ -80.060768291309813, 44.01955065070689 ] } },
{ "type": "Feature", "properties": { "id": 11, "townname": "Cavan-Monaghan" }, "geometry": { "type": "Point", "coordinates": [ -78.455690747089292, 44.193896559114414 ] } },
{ "type": "Feature", "properties": { "id": 12, "townname": "Clearview" }, "geometry": { "type": "Point", "coordinates": [ -80.097961575843073, 44.378369639167623 ] } },
{ "type": "Feature", "properties": { "id": 13, "townname": "Grey Highlands" }, "geometry": { "type": "Point", "coordinates": [ -80.490863624240887, 44.341409680931932 ] } },
{ "type": "Feature", "properties": { "id": 14, "townname": "Centre Wellington" }, "geometry": { "type": "Point", "coordinates": [ -80.386619937559814, 43.716080789643208 ] } },
{ "type": "Feature", "properties": { "id": 15, "townname": "Owen Sound" }, "geometry": { "type": "Point", "coordinates": [ -80.927067679809454, 44.576122918020417 ] } },
{ "type": "Feature", "properties": { "id": 16, "townname": "Ajax" }, "geometry": { "type": "Point", "coordinates": [ -78.970507642278235, 43.741189330122509 ] } },
{ "type": "Feature", "properties": { "id": 17, "townname": "Thorold" }, "geometry": { "type": "Point", "coordinates": [ -79.225508089872633, 43.078096681723309 ] } },
{ "type": "Feature", "properties": { "id": 18, "townname": "Toronto" }, "geometry": { "type": "Point", "coordinates": [ -79.310391717946317, 43.627434763332836 ] } },
{ "type": "Feature", "properties": { "id": 19, "townname": "Shelburne" }, "geometry": { "type": "Point", "coordinates": [ -80.200453228788334, 44.080778420234083 ] } },
{ "type": "Feature", "properties": { "id": 20, "townname": "Cambridge" }, "geometry": { "type": "Point", "coordinates": [ -80.328395495339137, 43.400808529943575 ] } },
{ "type": "Feature", "properties": { "id": 21, "townname": "Guelph" }, "geometry": { "type": "Point", "coordinates": [ -80.236816798197424, 43.532830028925396 ] } },
{ "type": "Feature", "properties": { "id": 22, "townname": "North Dumfries" }, "geometry": { "type": "Point", "coordinates": [ -80.362485406576951, 43.330238506975832 ] } },
{ "type": "Feature", "properties": { "id": 23, "townname": "The Blue Mountains" }, "geometry": { "type": "Point", "coordinates": [ -80.429771543808144, 44.634585991995145 ] } },
{ "type": "Feature", "properties": { "id": 24, "townname": "Brantford" }, "geometry": { "type": "Point", "coordinates": [ -80.27220111954891, 43.150352738457514 ] } },
{ "type": "Feature", "properties": { "id": 25, "townname": "Erin" }, "geometry": { "type": "Point", "coordinates": [ -80.11449155306984, 43.744743136782958 ] } },
{ "type": "Feature", "properties": { "id": 26, "townname": "West Grey" }, "geometry": { "type": "Point", "coordinates": [ -80.858027694036679, 44.176561714960968 ] } },
{ "type": "Feature", "properties": { "id": 27, "townname": "East Gwillimbury" }, "geometry": { "type": "Point", "coordinates": [ -79.407771423512301, 44.139405553406704 ] } },
{ "type": "Feature", "properties": { "id": 28, "townname": "Innisfil" }, "geometry": { "type": "Point", "coordinates": [ -79.620417713452341, 44.274112274348596 ] } },
{ "type": "Feature", "properties": { "id": 29, "townname": "Mulmur" }, "geometry": { "type": "Point", "coordinates": [ -80.102449040058374, 44.189565127033092 ] } },
{ "type": "Feature", "properties": { "id": 30, "townname": "Richmond Hill" }, "geometry": { "type": "Point", "coordinates": [ -79.42780090002924, 43.903349057333322 ] } },
{ "type": "Feature", "properties": { "id": 31, "townname": "Oakville" }, "geometry": { "type": "Point", "coordinates": [ -79.651481279515039, 43.41207416458824 ] } },
{ "type": "Feature", "properties": { "id": 32, "townname": "Mississauga" }, "geometry": { "type": "Point", "coordinates": [ -79.609828025968028, 43.549797445977781 ] } },
{ "type": "Feature", "properties": { "id": 33, "townname": "Southgate" }, "geometry": { "type": "Point", "coordinates": [ -80.587400650457283, 44.09294622931808 ] } },
{ "type": "Feature", "properties": { "id": 34, "townname": "Grimsby" }, "geometry": { "type": "Point", "coordinates": [ -79.564570377488948, 43.227209591134205 ] } },
{ "type": "Feature", "properties": { "id": 35, "townname": "Brampton" }, "geometry": { "type": "Point", "coordinates": [ -79.752120763905538, 43.715241867470311 ] } },
{ "type": "Feature", "properties": { "id": 36, "townname": "Puslinch" }, "geometry": { "type": "Point", "coordinates": [ -80.173413290891617, 43.462348780119193 ] } },
{ "type": "Feature", "properties": { "id": 37, "townname": "Meaford" }, "geometry": { "type": "Point", "coordinates": [ -80.722247892511803, 44.644746530270432 ] } },
{ "type": "Feature", "properties": { "id": 38, "townname": "Amaranth" }, "geometry": { "type": "Point", "coordinates": [ -80.234350945184872, 43.980507131137202 ] } },
{ "type": "Feature", "properties": { "id": 39, "townname": "Niagara-on-the-Lake" }, "geometry": { "type": "Point", "coordinates": [ -79.142694027939783, 43.260967514196359 ] } },
{ "type": "Feature", "properties": { "id": 40, "townname": "Brant" }, "geometry": { "type": "Point", "coordinates": [ -80.343883976910419, 43.135550661464883 ] } },
{ "type": "Feature", "properties": { "id": 41, "townname": "Guelph\/Eramosa" }, "geometry": { "type": "Point", "coordinates": [ -80.248776450687728, 43.607591193173654 ] } },
{ "type": "Feature", "properties": { "id": 42, "townname": "Brock" }, "geometry": { "type": "Point", "coordinates": [ -79.097037536825923, 44.344446586208811 ] } },
{ "type": "Feature", "properties": { "id": 43, "townname": "New Tecumseth" }, "geometry": { "type": "Point", "coordinates": [ -79.777816100965239, 44.084211278562215 ] } },
{ "type": "Feature", "properties": { "id": 44, "townname": "Georgian Bluffs" }, "geometry": { "type": "Point", "coordinates": [ -80.997132025821841, 44.671852473465862 ] } },
{ "type": "Feature", "properties": { "id": 45, "townname": "Smith-Ennismore-Lakefield" }, "geometry": { "type": "Point", "coordinates": [ -78.345635737363168, 44.435950186516315 ] } },
{ "type": "Feature", "properties": { "id": 46, "townname": "Otonabee-South Monaghan" }, "geometry": { "type": "Point", "coordinates": [ -78.223876162487386, 44.241717530366252 ] } },
{ "type": "Feature", "properties": { "id": 47, "townname": "Collingwood" }, "geometry": { "type": "Point", "coordinates": [ -80.245747004668843, 44.59108426218782 ] } },
{ "type": "Feature", "properties": { "id": 48, "townname": "Caledon" }, "geometry": { "type": "Point", "coordinates": [ -79.902262373767286, 43.849052925930849 ] } },
{ "type": "Feature", "properties": { "id": 49, "townname": "Hamilton" }, "geometry": { "type": "Point", "coordinates": [ -78.157919458046862, 43.927001172514068 ] } },
{ "type": "Feature", "properties": { "id": 50, "townname": "Douro-Dummer" }, "geometry": { "type": "Point", "coordinates": [ -78.110838629913985, 44.45305725207912 ] } },
{ "type": "Feature", "properties": { "id": 51, "townname": "Burlington" }, "geometry": { "type": "Point", "coordinates": [ -79.807470986490827, 43.361270474585375 ] } },
{ "type": "Feature", "properties": { "id": 52, "townname": "Alnwick\/Haldimand" }, "geometry": { "type": "Point", "coordinates": [ -77.966795211055867, 43.928250721979985 ] } },
{ "type": "Feature", "properties": { "id": 53, "townname": "Chatsworth" }, "geometry": { "type": "Point", "coordinates": [ -80.88569068177074, 44.392892872210467 ] } },
{ "type": "Feature", "properties": { "id": 54, "townname": "Georgina" }, "geometry": { "type": "Point", "coordinates": [ -79.354663400534818, 44.316559860675547 ] } },
{ "type": "Feature", "properties": { "id": 55, "townname": "East Garafraxa" }, "geometry": { "type": "Point", "coordinates": [ -80.245313192321319, 43.844184617432752 ] } },
{ "type": "Feature", "properties": { "id": 56, "townname": "Melancthon" }, "geometry": { "type": "Point", "coordinates": [ -80.291585378808392, 44.149496521404352 ] } },
{ "type": "Feature", "properties": { "id": 57, "townname": "Scugog" }, "geometry": { "type": "Point", "coordinates": [ -78.920703712033998, 44.121565287773777 ] } },
{ "type": "Feature", "properties": { "id": 58, "townname": "Niagara Falls" }, "geometry": { "type": "Point", "coordinates": [ -79.101703297115677, 43.050970363228458 ] } },
{ "type": "Feature", "properties": { "id": 59, "townname": "Asphodel-Norwood" }, "geometry": { "type": "Point", "coordinates": [ -78.006920863653889, 44.343134896465067 ] } },
{ "type": "Feature", "properties": { "id": 60, "townname": "Oshawa" }, "geometry": { "type": "Point", "coordinates": [ -78.826002739822442, 43.826847114971812 ] } },
{ "type": "Feature", "properties": { "id": 61, "townname": "Welland" }, "geometry": { "type": "Point", "coordinates": [ -79.228934579084182, 42.990952473952696 ] } },
{ "type": "Feature", "properties": { "id": 62, "townname": "Newmarket" }, "geometry": { "type": "Point", "coordinates": [ -79.46140827356173, 44.049354076886374 ] } },
{ "type": "Feature", "properties": { "id": 63, "townname": "King" }, "geometry": { "type": "Point", "coordinates": [ -79.608908367489505, 43.975823523925747 ] } },
{ "type": "Feature", "properties": { "id": 64, "townname": "Bradford West Gwillimbury" }, "geometry": { "type": "Point", "coordinates": [ -79.616945011981699, 44.119783398993349 ] } },
{ "type": "Feature", "properties": { "id": 65, "townname": "Lincoln" }, "geometry": { "type": "Point", "coordinates": [ -79.412250530491619, 43.238473745158345 ] } },
{ "type": "Feature", "properties": { "id": 66, "townname": "Markham" }, "geometry": { "type": "Point", "coordinates": [ -79.295223550117655, 43.881062191399316 ] } },
{ "type": "Feature", "properties": { "id": 67, "townname": "Whitchurch-Stouffville" }, "geometry": { "type": "Point", "coordinates": [ -79.323709000689036, 44.012462018545968 ] } },
{ "type": "Feature", "properties": { "id": 68, "townname": "Clarington" }, "geometry": { "type": "Point", "coordinates": [ -78.598525472180711, 43.850836973459771 ] } },
{ "type": "Feature", "properties": { "id": 69, "townname": "West Lincoln" }, "geometry": { "type": "Point", "coordinates": [ -79.570957159597882, 43.068132691760553 ] } },
{ "type": "Feature", "properties": { "id": 70, "townname": "Peterborough" }, "geometry": { "type": "Point", "coordinates": [ -78.324598980344732, 44.305657322763565 ] } },
{ "type": "Feature", "properties": { "id": 71, "townname": "East Luther Grand Valley" }, "geometry": { "type": "Point", "coordinates": [ -80.367126638961707, 43.951807903696981 ] } },
{ "type": "Feature", "properties": { "id": 72, "townname": "South Bruce Peninsula" }, "geometry": { "type": "Point", "coordinates": [ -81.181286759058281, 44.794869504260326 ] } },
{ "type": "Feature", "properties": { "id": 73, "townname": "Aurora" }, "geometry": { "type": "Point", "coordinates": [ -79.447595251050529, 43.995974624036897 ] } },
{ "type": "Feature", "properties": { "id": 74, "townname": "St. Catharines" }, "geometry": { "type": "Point", "coordinates": [ -79.259997096555352, 43.268807126329769 ] } },
{ "type": "Feature", "properties": { "id": 75, "townname": "Pickering" }, "geometry": { "type": "Point", "coordinates": [ -79.069438297913891, 43.796047123116658 ] } },
{ "type": "Feature", "properties": { "id": 76, "townname": "Wasaga Beach" }, "geometry": { "type": "Point", "coordinates": [ -80.072790653781624, 44.517425088208334 ] } },
{ "type": "Feature", "properties": { "id": 77, "townname": "Adjala-Tosorontio" }, "geometry": { "type": "Point", "coordinates": [ -79.934984784936645, 44.113812659607461 ] } }
]
}
